~VERSION
VERS. 2.0 : CWLS LAS-VERSION 2.0
WRAP. NO  : One line per depth step
~WELL
STRT.M 635.0000              : START DEPTH
STOP.M 585.1250              : STOP DEPTH
STEP.M -0.1250               : STEP
NULL.  -999.25               : NULL VALUE
WELL.  ANY ET AL 12-34-12-34 : WELL
~CURVE
DEPT.M    : DEPTH
AAA .BBB  : SYNTHETIC DATA
CCC .DDD  : SYNTHETIC DATA
CODE.     : Created from an image using ImageToLithology
~A
635.0000 0.0045   1.0144   66.0000
634.8750 0.0074   1.0578   66.0000
634.7500 0.0630   1.0438   66.0000
634.6250 0.0441   1.0293   66.0000
634.5000 0.1379   0.9951   66.0000
634.3750 0.0751   1.0330   66.0000
634.2500 0.0451   0.9921   66.0000
634.1250 0.1850   0.9802   66.0000
634.0000 0.1886   0.9520   66.0000
633.8750 0.2557   0.9804   66.0000
633.7500 0.2225   0.9467   66.0000
633.6250 0.2708   0.9255   66.0000
633.5000 0.2621   0.8877   66.0000
633.3750 0.2338   0.9533   66.0000
633.2500 0.3349   0.9008   66.0000
633.1250 0.3217   0.9611   66.0000
633.0000 0.3688   0.9508   66.0000
632.8750 0.4090   0.8605   66.0000
632.7500 0.3981   0.9013   66.0000
632.6250 0.4592   0.9295   66.0000
632.5000 0.4253   0.9026   66.0000
632.3750 0.4587   0.8827   66.0000
632.2500 0.5146   0.8334   66.0000
632.1250 0.5152   0.8875   66.0000
632.0000 0.4414   0.8989   66.0000
631.8750 0.5203   0.9022   66.0000
631.7500 0.5659   0.7469   66.0000
631.6250 0.5643   0.8220   66.0000
631.5000 0.6115   0.7397   66.0000
631.3750 0.6036   0.7300   66.0000
631.2500 0.6434   0.7660   66.0000
631.1250 0.6705   0.7581   66.0000
631.0000 0.6871   0.6544   66.0000
630.8750 0.7348   0.6867   66.0000
630.7500 0.6709   0.7284   66.0000
630.6250 0.7303   0.6666   66.0000
630.5000 0.7589   0.6472   -1.0000
630.3750 0.7377   0.7008   -1.0000
630.2500 0.7367   0.6357   -1.0000
630.1250 0.7522   0.6091   -1.0000
630.0000 0.8380   0.5863   -1.0000
629.8750 0.7783   0.5945   48.0000
629.7500 0.8681   0.5177   48.0000
629.6250 0.8925   0.5395   48.0000
629.5000 0.8441   0.5311   48.0000
629.3750 0.9243   0.5496   48.0000
629.2500 0.9328   0.5105   48.0000
629.1250 0.8997   0.4102   48.0000
629.0000 0.9742   0.4262   48.0000
628.8750 0.9555   0.3913   48.0000
628.7500 0.9473   0.3522   48.0000
628.6250 0.9556   0.3935   48.0000
628.5000 0.9981   0.3234   48.0000
628.3750 0.9294   0.3144   48.0000
628.2500 0.9671   0.2570   48.0000
628.1250 0.9742   0.2473   48.0000
628.0000 0.9652   0.3045   48.0000
627.8750 0.9765   0.2642   48.0000
627.7500 0.9766   0.1788   48.0000
627.6250 1.0123   0.1847   48.0000
627.5000 0.9285   0.1724   48.0000
627.3750 0.9700   0.0735   48.0000
627.2500 0.9840   0.0776   48.0000
627.1250 1.0357   0.0455   48.0000
627.0000 1.0208   0.0846   48.0000
626.8750 1.0242   0.0248   48.0000
626.7500 0.9860   0.0276   48.0000
626.6250 0.9685   -0.0216  48.0000
626.5000 0.9639   -0.0201  48.0000
626.3750 0.9640   -0.0758  48.0000
626.2500 1.0675   -0.0375  48.0000
626.1250 1.0011   -0.1306  48.0000
626.0000 1.0191   -0.1216  48.0000
625.8750 0.9753   -0.1545  48.0000
625.7500 0.9825   -0.1794  48.0000
625.6250 0.9305   -0.2124  48.0000
625.5000 0.9090   -0.2412  48.0000
625.3750 1.0417   -0.2437  48.0000
625.2500 0.9855   -0.2596  48.0000
625.1250 0.9444   -0.3283  48.0000
625.0000 0.9771   -0.2966  48.0000
624.8750 0.9170   -0.3693  48.0000
624.7500 0.9194   -0.3472  48.0000
624.6250 0.9120   -0.2922  48.0000
624.5000 0.9214   -0.3926  48.0000
624.3750 0.9379   -0.4347  48.0000
624.2500 0.8379   -0.4875  48.0000
624.1250 0.8869   -0.4918  48.0000
624.0000 0.8518   -0.5445  48.0000
623.8750 0.8970   -0.4625  48.0000
623.7500 0.8771   -0.5504  48.0000
623.6250 0.8335   -0.5798  48.0000
623.5000 0.8295   -0.6309  48.0000
623.3750 0.8087   -0.5918  48.0000
623.2500 0.7835   -0.5951  48.0000
623.1250 0.7726   -0.6015  48.0000
623.0000 0.7745   -0.6443  48.0000
622.8750 0.7698   -0.6399  48.0000
622.7500 0.7592   -0.6993  48.0000
622.6250 0.7077   -0.7032  48.0000
622.5000 0.6630   -0.6709  48.0000
622.3750 0.7428   -0.7094  48.0000
622.2500 0.6978   -0.7075  48.0000
622.1250 0.6771   -0.7222  48.0000
622.0000 0.6190   -0.7777  48.0000
621.8750 0.6182   -0.7947  48.0000
621.7500 0.6002   -0.7824  48.0000
621.6250 0.5053   -0.8264  48.0000
621.5000 0.5676   -0.7396  48.0000
621.3750 0.5342   -0.8794  48.0000
621.2500 0.4436   -0.8707  48.0000
621.1250 0.4507   -0.8753  48.0000
621.0000 0.4274   -0.8962  48.0000
620.8750 0.4309   -0.8935  48.0000
620.7500 0.4248   -0.9255  48.0000
620.6250 0.3843   -0.8871  48.0000
620.5000 0.3558   -0.8901  48.0000
620.3750 0.3029   -0.9920  48.0000
620.2500 0.3690   -0.9061  48.0000
620.1250 0.3042   -0.9026  48.0000
620.0000 0.3416   -0.9337  48.0000
619.8750 0.2671   -0.9335  48.0000
619.7500 0.2769   -0.9080  48.0000
619.6250 0.2393   -0.9984  48.0000
619.5000 0.1735   -0.9375  48.0000
619.3750 0.1774   -0.9992  48.0000
619.2500 0.1422   -0.9073  48.0000
619.1250 0.1896   -0.9756  -1.0000
619.0000 0.0602   -0.9496  -1.0000
618.8750 0.0698   -0.9474  -1.0000
618.7500 0.1073   -0.9602  -1.0000
618.6250 0.0017   -0.9795  -1.0000
618.5000 0.0423   -1.0186  57.0000
618.3750 0.0217   -1.0117  57.0000
618.2500 -0.0316  -0.9880  57.0000
618.1250 0.0123   -0.9445  57.0000
618.0000 -0.0663  -1.0088  57.0000
617.8750 -0.0493  -0.9947  57.0000
617.7500 -0.1530  -1.0495  57.0000
617.6250 -0.1730  -1.0504  57.0000
617.5000 -0.1626  -0.9709  57.0000
617.3750 -0.1297  -1.0138  57.0000
617.2500 -0.2407  -0.9834  57.0000
617.1250 -0.2058  -0.9756  57.0000
617.0000 -0.2273  -0.9330  57.0000
616.8750 -0.2345  -0.9722  57.0000
616.7500 -0.2871  -0.9097  57.0000
616.6250 -0.3180  -0.9320  57.0000
616.5000 -0.3082  -0.9186  57.0000
616.3750 -0.4008  -0.9199  57.0000
616.2500 -0.3619  -0.9123  57.0000
616.1250 -0.4521  -0.9005  57.0000
616.0000 -0.3914  -0.8801  57.0000
615.8750 -0.4838  -0.9252  57.0000
615.7500 -0.4809  -0.9428  57.0000
615.6250 -0.5137  -0.8111  57.0000
615.5000 -0.4786  -0.8760  57.0000
615.3750 -0.5763  -0.8634  -1.0000
615.2500 -0.6465  -0.9145  -1.0000
615.1250 -0.5593  -0.8631  -1.0000
615.0000 -0.5977  -0.7791  -1.0000
614.8750 -0.5945  -0.8077  -1.0000
614.7500 -0.5590  -0.7303  48.0000
614.6250 -0.6259  -0.7692  48.0000
614.5000 -0.6271  -0.7007  48.0000
614.3750 -0.6853  -0.6837  48.0000
614.2500 -0.6936  -0.6469  48.0000
614.1250 -0.6745  -0.6516  48.0000
614.0000 -0.6918  -0.6884  48.0000
613.8750 -0.7451  -0.7034  48.0000
613.7500 -0.7419  -0.6634  48.0000
613.6250 -0.7404  -0.6131  48.0000
613.5000 -0.8043  -0.5848  48.0000
613.3750 -0.8240  -0.5990  48.0000
613.2500 -0.8183  -0.5654  48.0000
613.1250 -0.8120  -0.5511  48.0000
613.0000 -0.7656  -0.4840  48.0000
612.8750 -0.7904  -0.4811  48.0000
612.7500 -0.9404  -0.4973  48.0000
612.6250 -0.8286  -0.4141  48.0000
612.5000 -0.8354  -0.4595  48.0000
612.3750 -0.9135  -0.3892  48.0000
612.2500 -0.9465  -0.4308  48.0000
612.1250 -1.0023  -0.3840  48.0000
612.0000 -0.8937  -0.3341  48.0000
611.8750 -0.9243  -0.3385  48.0000
611.7500 -0.9786  -0.3212  48.0000
611.6250 -0.9811  -0.2624  48.0000
611.5000 -0.9281  -0.2619  48.0000
611.3750 -0.9908  -0.1855  48.0000
611.2500 -0.9760  -0.2720  48.0000
611.1250 -1.0314  -0.1356  48.0000
611.0000 -1.0533  -0.1792  48.0000
610.8750 -1.0410  -0.1590  48.0000
610.7500 -0.9907  -0.1730  48.0000
610.6250 -0.9882  -0.0677  48.0000
610.5000 -0.9757  -0.0765  48.0000
610.3750 -0.9903  -0.0100  48.0000
610.2500 -0.9908  -0.0477  48.0000
610.1250 -0.9894  -0.0315  48.0000
610.0000 -1.0046  0.0196   48.0000
609.8750 -1.0584  0.0586   48.0000
609.7500 -0.9562  0.0526   48.0000
609.6250 -1.0119  0.0566   48.0000
609.5000 -0.9773  0.1176   48.0000
609.3750 -0.9653  0.1283   48.0000
609.2500 -0.9558  0.1936   48.0000
609.1250 -1.0251  0.1716   48.0000
609.0000 -0.9465  0.1838   48.0000
608.8750 -0.9953  0.2529   48.0000
608.7500 -0.9466  0.2173   48.0000
608.6250 -0.9912  0.2495   48.0000
608.5000 -0.9531  0.2347   48.0000
608.3750 -0.9593  0.2935   48.0000
608.2500 -0.9717  0.2758   48.0000
608.1250 -0.9287  0.3141   48.0000
608.0000 -0.8738  0.3804   48.0000
607.8750 -0.9382  0.3758   48.0000
607.7500 -0.9033  0.4345   48.0000
607.6250 -0.8336  0.4779   48.0000
607.5000 -0.8738  0.4482   48.0000
607.3750 -0.9481  0.4789   48.0000
607.2500 -0.8535  0.5437   48.0000
607.1250 -0.8868  0.5383   48.0000
607.0000 -0.8538  0.5298   48.0000
606.8750 -0.8160  0.5946   48.0000
606.7500 -0.7841  0.5972   48.0000
606.6250 -0.7616  0.5979   48.0000
606.5000 -0.7716  0.5903   48.0000
