~VERSION
VERS. 2.0 : CWLS LAS-VERSION 2.0
WRAP. NO  : One line per depth step
~WELL
STRT.M 635.0000              : START DEPTH
STOP.M 585.1250              : STOP DEPTH
STEP.M -0.1250               : STEP
NULL.  -999.25               : NULL VALUE
WELL.  ANY ET AL 12-34-12-34 : WELL
~CURVE
DEPT.M    : DEPTH
AAA .BBB  : SYNTHETIC DATA
CCC .DDD  : SYNTHETIC DATA
CODE.     : Created from an image using ImageToLithology
~A
# ...
606.3750 -0.7750  0.5984   48.0000
606.2500 -0.7093  0.6350   48.0000
606.1250 -0.7975  0.5933   48.0000
606.0000 -0.6988  0.7169   48.0000
605.8750 -0.6644  0.6723   48.0000
605.7500 -0.6330  0.7484   48.0000
605.6250 -0.6205  0.7863   48.0000
605.5000 -0.6412  0.7668   48.0000
605.3750 -0.6165  0.7897   48.0000
605.2500 -0.6501  0.8467   48.0000
605.1250 -0.5864  0.7422   48.0000
605.0000 -0.5464  0.8121   48.0000
604.8750 -0.5618  0.8736   48.0000
604.7500 -0.5385  0.8827   48.0000
604.6250 -0.5688  0.8402   48.0000
604.5000 -0.5242  0.8021   48.0000
604.3750 -0.4128  0.8938   48.0000
604.2500 -0.4605  0.8980   48.0000
604.1250 -0.4794  0.8897   48.0000
604.0000 -0.4670  0.9324   48.0000
603.8750 -0.3857  0.8727   48.0000
603.7500 -0.3630  0.9420   48.0000
603.6250 -0.3643  0.9207   48.0000
603.5000 -0.2840  0.9028   48.0000
603.3750 -0.2917  0.9879   48.0000
603.2500 -0.2705  0.9438   48.0000
603.1250 -0.2783  0.9816   48.0000
603.0000 -0.2740  0.9903   48.0000
602.8750 -0.2805  0.9921   48.0000
602.7500 -0.1853  0.9756   48.0000
602.6250 -0.1765  0.9731   48.0000
602.5000 -0.1801  1.0179   48.0000
602.3750 -0.0972  0.9793   48.0000
602.2500 -0.0699  1.0253   48.0000
602.1250 -0.0933  0.9681   48.0000
602.0000 -0.0503  0.9552   48.0000
601.8750 -0.0111  0.9866   -1.0000
601.7500 0.0526   0.9626   -1.0000
601.6250 0.0962   0.9912   -1.0000
601.5000 0.0310   0.9894   -1.0000
601.3750 0.0747   1.0171   -1.0000
601.2500 0.0944   1.0510   57.0000
601.1250 0.1377   0.9645   57.0000
601.0000 0.0663   1.0202   57.0000
600.8750 0.1603   0.9724   57.0000
600.7500 0.2380   0.9553   57.0000
600.6250 0.2011   0.9197   57.0000
600.5000 0.1672   0.9841   57.0000
600.3750 0.2350   1.0182   57.0000
600.2500 0.2402   0.9897   57.0000
600.1250 0.3086   0.8757   57.0000
600.0000 0.3585   0.9874   57.0000
599.8750 0.3754   0.9904   57.0000
599.7500 0.3560   0.9304   57.0000
599.6250 0.3784   0.8576   57.0000
599.5000 0.4229   0.9198   57.0000
599.3750 0.4462   0.8841   57.0000
599.2500 0.4606   0.8890   57.0000
599.1250 0.4446   0.9335   57.0000
599.0000 0.5433   0.8166   57.0000
598.8750 0.5346   0.8314   57.0000
598.7500 0.5290   0.8633   57.0000
598.6250 0.5325   0.8787   57.0000
598.5000 0.5533   0.7922   57.0000
598.3750 0.5360   0.7853   57.0000
598.2500 0.6047   0.8143   57.0000
598.1250 0.6178   0.8077   57.0000
598.0000 0.7002   0.7724   57.0000
597.8750 0.6322   0.7428   57.0000
597.7500 0.6555   0.7362   57.0000
597.6250 0.6775   0.6926   57.0000
597.5000 0.6825   0.7396   57.0000
597.3750 0.7695   0.7210   57.0000
597.2500 0.7159   0.6669   57.0000
597.1250 0.7306   0.6701   57.0000
597.0000 0.8458   0.5670   57.0000
596.8750 0.8202   0.6074   -1.0000
596.7500 0.8714   0.5727   -1.0000
596.6250 0.7981   0.5469   -1.0000
596.5000 0.8844   0.4922   -1.0000
596.3750 0.8138   0.5170   -1.0000
596.2500 0.8806   0.4973   21.0000
596.1250 0.8594   0.5219   21.0000
596.0000 0.8360   0.5333   21.0000
595.8750 0.9214   0.4489   21.0000
595.7500 0.9067   0.3620   21.0000
595.6250 0.9773   0.3964   21.0000
595.5000 0.9549   0.3490   21.0000
595.3750 1.0418   0.2975   21.0000
595.2500 0.8964   0.3545   21.0000
595.1250 0.9108   0.2876   21.0000
595.0000 0.9393   0.3275   21.0000
594.8750 0.9208   0.3093   21.0000
594.7500 0.9496   0.2330   21.0000
594.6250 0.9688   0.2059   21.0000
594.5000 1.0049   0.1579   21.0000
594.3750 0.9971   0.1506   21.0000
594.2500 0.9983   0.1750   21.0000
594.1250 0.9680   0.1879   21.0000
594.0000 0.9695   0.0747   21.0000
593.8750 0.9463   0.0775   21.0000
593.7500 1.0010   0.0439   21.0000
593.6250 1.0182   0.0339   21.0000
593.5000 1.0559   0.0407   21.0000
593.3750 1.0200   -0.0029  21.0000
593.2500 0.9771   -0.0609  21.0000
593.1250 1.0354   -0.0256  21.0000
593.0000 1.0100   -0.0701  21.0000
592.8750 0.9571   -0.0805  21.0000
592.7500 0.9510   -0.1275  21.0000
592.6250 0.9892   -0.0935  21.0000
592.5000 0.9780   -0.1865  21.0000
592.3750 0.9890   -0.1795  21.0000
592.2500 1.0069   -0.2176  21.0000
592.1250 0.9234   -0.2342  21.0000
592.0000 0.9134   -0.2412  21.0000
591.8750 0.9526   -0.3542  21.0000
591.7500 0.8908   -0.2817  21.0000
591.6250 0.9560   -0.4138  21.0000
591.5000 0.9170   -0.3751  21.0000
591.3750 0.8937   -0.3901  21.0000
591.2500 0.9091   -0.4145  21.0000
591.1250 0.9390   -0.4310  21.0000
591.0000 0.9580   -0.4229  21.0000
590.8750 0.8520   -0.4698  21.0000
590.7500 0.8461   -0.4961  21.0000
590.6250 0.8235   -0.4768  21.0000
590.5000 0.7917   -0.5398  21.0000
590.3750 0.8359   -0.5423  21.0000
590.2500 0.8874   -0.5843  21.0000
590.1250 0.8269   -0.6127  21.0000
590.0000 0.8102   -0.6005  21.0000
589.8750 0.8124   -0.6578  21.0000
589.7500 0.7173   -0.5827  21.0000
589.6250 0.7267   -0.6582  21.0000
589.5000 0.7708   -0.6923  21.0000
589.3750 0.7290   -0.7068  21.0000
589.2500 0.6771   -0.7356  21.0000
589.1250 0.7631   -0.7081  21.0000
589.0000 0.6423   -0.7058  21.0000
588.8750 0.6637   -0.7845  21.0000
588.7500 0.6220   -0.7896  21.0000
588.6250 0.5503   -0.7926  21.0000
588.5000 0.5903   -0.8336  21.0000
588.3750 0.5650   -0.8051  21.0000
588.2500 0.5646   -0.8181  21.0000
588.1250 0.5428   -0.8019  21.0000
588.0000 0.5256   -0.8734  21.0000
587.8750 0.4939   -0.8880  21.0000
587.7500 0.5029   -0.8611  21.0000
587.6250 0.4166   -0.8839  21.0000
587.5000 0.4569   -0.9245  21.0000
587.3750 0.4493   -0.9036  21.0000
587.2500 0.3685   -0.9778  21.0000
587.1250 0.3745   -0.9348  21.0000
587.0000 0.3346   -0.9759  21.0000
586.8750 0.3354   -0.8959  21.0000
586.7500 0.2922   -0.9475  21.0000
586.6250 0.3265   -0.9423  21.0000
586.5000 0.2456   -1.0017  21.0000
586.3750 0.2252   -0.9384  21.0000
586.2500 0.1631   -0.9191  21.0000
586.1250 0.1560   -0.9662  21.0000
586.0000 0.1020   -0.9617  21.0000
585.8750 0.1344   -0.9804  21.0000
585.7500 0.0850   -1.0490  21.0000
585.6250 0.1156   -0.9702  21.0000
585.5000 0.0189   -1.0200  21.0000
585.3750 0.0155   -1.0330  21.0000
585.2500 -0.0522  -1.0404  21.0000
585.1250 0.0371   -0.9452  21.0000
